City,Lat,Lng,Max Temp,Humidity,Cloudiness,Wind Speed,Country,Date
heighington,53.2124,-0.459,4.65,89,100,3.09,GB,1700999133
carnarvon,-24.8667,113.6333,22.2,71,85,7.31,AU,1700999227
ataq,14.5377,46.8319,29.22,19,5,4.3,YE,1700999229
iqaluit,63.7506,-68.5145,-10.15,73,75,1.54,CA,1700999231
port-aux-francais,-49.35,70.2167,3.85,68,73,10.39,TF,1700999233
urcos,-13.6861,-71.6228,11.94,77,100,0.92,PE,1700999235
punta arenas,-53.15,-70.9167,5.06,65,75,13.38,CL,1700999237
albany,42.6001,-73.9662,-1.7,83,78,0.45,US,1700999239
ribeira grande,38.5167,-28.7,20.22,100,75,7.6,PT,1700999240
ponta delgada,37.7333,-25.6667,20.4,88,75,9.77,PT,1700999242
novo aripuana,-5.1206,-60.3797,26.33,83,98,0.93,BR,1700999244
port alfred,-33.5906,26.891,24.54,84,61,3.13,ZA,1700999246
invercargill,-46.4,168.35,10.57,92,95,1.34,NZ,1700999248
waitangi,-43.9535,-176.5597,14.34,97,73,1.79,NZ,1700999249
poso,-1.3959,120.7524,27.67,76,99,3.09,ID,1700999251
sao felix do xingu,-6.6447,-51.995,31.48,46,32,1.53,BR,1700999254
port elizabeth,-33.918,25.5701,26.29,69,20,6.17,ZA,1700999256
adamstown,-25.066,-130.1015,20.87,87,100,12.61,PN,1700999258
hermanus,-34.4187,19.2345,21.6,64,10,4.07,ZA,1700999260
pierre,44.3683,-100.351,1.03,67,100,9.26,US,1700999262
uturoa,-16.7333,-151.4333,26.66,71,100,8.39,PF,1700999263
deqen,29.9618,90.7188,1.46,25,0,1.14,CN,1700999265
tiksi,71.6872,128.8694,-21.02,100,98,2.63,RU,1700999267
valdivia,-39.8142,-73.2459,10.05,70,100,1.78,CL,1700999182
grytviken,-54.2811,-36.5092,5.49,96,100,2.12,GS,1700999270
kirensk,57.7853,108.1119,-19.34,97,99,0.76,RU,1700999272
sabang,5.8933,95.3214,25.69,86,100,3.91,ID,1700999274
ust-nera,64.5667,143.2,-24.18,99,100,4.53,RU,1700999276
ha giang,22.8333,104.9833,22.61,72,87,1.05,VN,1700999277
hamilton,39.1834,-84.5333,4.41,85,75,3.6,US,1700999132
hithadhoo,-0.6,73.0833,28.13,73,64,2.23,MV,1700999281
morag,53.9171,19.926,-0.4,94,91,6.24,PL,1700999283
kapuskasing,49.4169,-82.4331,-1.95,69,100,5.14,CA,1700999010
bilokurakyne,49.5341,38.7307,10.95,85,100,6.04,UA,1700999286
nova sintra,14.8667,-24.7167,21.81,70,1,8.63,CV,1700999288
pisco,-13.7,-76.2167,18.03,88,0,3.09,PE,1700999290
vorgashor,67.5833,63.95,-13.09,95,100,3.22,RU,1700999292
happy valley-goose bay,53.3168,-60.3315,-7.83,67,75,3.09,CA,1700999293
darley,-37.6377,144.4263,15.23,83,100,1.34,AU,1700999295
madalena,41.2162,-8.3345,11.97,68,98,1.35,PT,1700999297
enewetak,11.3474,162.3373,28.32,81,84,8.64,MH,1700999299
wailua homesteads,22.0669,-159.378,23.44,86,40,5.66,US,1700999300
west island,-12.1568,96.8225,26.99,69,100,6.69,CC,1700999302
geraldton,-28.7667,114.6,21.23,78,100,5.14,AU,1700999304
veshenskaya,49.6303,41.7334,8.39,88,100,7.15,RU,1700999308
tsiombe,-25.3,45.4833,33.26,43,0,6.28,MG,1700999310
bilibino,68.0546,166.4372,-7.33,81,16,3.57,RU,1700999312
lihue,21.9789,-159.3672,23.77,81,40,5.66,US,1700999313
chibougamau,49.9168,-74.3659,-9.21,92,0,3.09,CA,1700999055
puerto natales,-51.7236,-72.4875,4.25,75,75,9.77,CL,1700999316
serenje,-13.2325,30.2352,22.31,70,99,4.61,ZM,1700999317
edinburgh of the seven seas,-37.0676,-12.3116,14.18,84,84,18.17,SH,1700999318
kodiak,57.79,-152.4072,3.73,87,75,4.12,US,1700999320
ulladulla,-35.35,150.4667,17.9,96,75,0.75,AU,1700999321
rahimah,26.7079,50.0619,27.12,62,70,3.38,SA,1700999323
naze,28.3667,129.4833,19.51,71,9,4.3,JP,1700999325
tofol,5.3248,163.0078,28.21,78,100,5.39,FM,1700999326
fale old settlement,-9.3852,-171.2468,29.14,73,79,3.54,TK,1700999328
puerto baquerizo moreno,-0.9,-89.6,23.99,81,87,5.65,EC,1700999330
whitehorse,60.7161,-135.0538,2.79,87,75,8.75,CA,1700999331
blackmans bay,-43.0167,147.3167,10.07,95,100,0.45,AU,1700999333
bethel,41.3712,-73.414,-0.42,86,40,0.0,US,1700999335
bayganin,48.6947,55.8742,3.45,63,87,9.34,KZ,1700999336
port mathurin,-19.6833,63.4167,25.19,73,13,5.74,MU,1700999338
yellowknife,62.456,-114.3525,-19.69,84,100,4.12,CA,1700999339
sona,45.4388,10.8255,11.51,40,0,1.03,IT,1700999343
olonkinbyen,70.9221,-8.7187,-0.4,79,27,7.2,SJ,1700999345
san patricio,28.017,-97.5169,17.13,86,100,5.15,US,1700999346
prieska,-29.6641,22.7474,38.88,5,12,7.35,ZA,1700999348
anadyr,64.75,177.4833,1.28,100,75,13.0,RU,1700999350
sydney,-33.8679,151.2073,23.53,68,61,2.68,AU,1700998667
bridgewater,44.3835,-64.5155,-2.18,86,95,3.6,CA,1700999279
saint-philippe,-21.3585,55.7679,28.77,79,46,5.12,RE,1700999355
ushuaia,-54.8,-68.3,2.81,87,100,13.38,AR,1700999318
dhidhdhoo,6.8833,73.1,28.88,74,78,6.57,MV,1700999358
shalqar,47.8333,59.6,2.04,73,93,6.83,KZ,1700999360
placido de castro,-10.3353,-67.1856,23.14,95,100,1.46,BR,1700999362
gorontalo,0.5412,123.0595,24.94,94,99,1.03,ID,1700999364
stanley,54.868,-1.6985,3.2,93,20,0.0,GB,1700999366
mount gambier,-37.8333,140.7667,11.69,81,93,4.13,AU,1700999368
bac lieu,9.285,105.7244,26.13,85,100,6.76,VN,1700999369
ghat,24.9647,10.1728,22.28,23,0,2.05,LY,1700999372
charters towers,-20.1,146.2667,24.02,82,100,5.4,AU,1700999375
coaticook,45.1334,-71.7991,-2.62,95,94,2.02,CA,1700999377
bikenibeu village,1.3673,173.1241,26.98,94,100,1.54,KI,1700999379
colonia,50.9333,6.95,7.76,84,75,4.12,DE,1700999195
polyarnyy,69.1989,33.4478,-7.82,85,95,0.93,RU,1700999383
mongu,-15.2484,23.1274,29.7,42,49,1.88,ZM,1700999384
lebu,-37.6167,-73.65,13.78,75,45,4.98,CL,1700999386
sandnessjoen,66.0217,12.6316,-3.94,86,20,3.09,NO,1700999388
aasiaat,68.7098,-52.8699,-3.9,81,87,3.56,GL,1700999390
bandiagara,14.3501,-3.6104,33.49,9,67,2.54,ML,1700999391
rawson,-43.3002,-65.1023,18.72,40,76,7.58,AR,1700999189
vilyuysk,63.7553,121.6247,-18.51,97,94,2.67,RU,1700999394
yuzhno-kurilsk,44.0306,145.8556,-0.35,78,82,9.34,RU,1700999396
usogorsk,63.4106,48.6872,-16.3,98,83,1.38,RU,1700999398
papatowai,-46.5619,169.4708,9.68,91,100,1.12,NZ,1700999399
santa ana,33.7456,-117.8678,16.86,26,0,5.66,US,1700999401
hawaiian paradise park,19.5933,-154.9731,20.73,91,20,2.06,US,1700999403
port blair,11.6667,92.75,29.02,74,40,4.12,IN,1700999405
al kharj,24.155,47.3346,29.32,31,49,4.43,SA,1700999407
st. john's,47.5649,-52.7093,-1.36,78,20,4.12,CA,1700999289
keflavik,64.0049,-22.5624,6.24,93,100,3.09,IS,1700999410
san jose del guaviare,2.5729,-72.6459,22.28,96,86,1.02,CO,1700999412
santiago de cao,-7.9589,-79.2392,18.07,88,40,2.57,PE,1700999414
pacific grove,36.6177,-121.9166,10.91,66,0,4.12,US,1700999415
udachny,66.4167,112.4,-16.38,96,100,4.43,RU,1700999417
canutama,-6.5339,-64.3831,24.54,88,100,0.61,BR,1700999419
ilulissat,69.2167,-51.1,3.01,48,75,5.14,GL,1700999421
sultanah,24.4926,39.5857,33.25,16,0,1.54,SA,1700999423
kavaratti,10.5669,72.642,29.08,68,62,2.54,IN,1700999426
kharp,66.8014,65.8081,-18.03,99,97,1.38,RU,1700999428
longyearbyen,78.2186,15.6401,-5.09,80,75,1.54,SJ,1700999430
nueva rosita,27.95,-101.2167,17.45,71,100,4.09,MX,1700999431
antofagasta,-23.65,-70.4,17.6,70,28,2.35,CL,1700999257
bobrovytsya,50.75,31.3833,0.54,80,100,7.05,UA,1700999435
nuuk,64.1835,-51.7216,1.34,64,75,10.8,GL,1700999436
bamboo flat,11.7,92.7167,29.05,74,40,4.12,IN,1700999440
avarua,-21.2078,-159.775,24.03,78,100,9.26,CK,1700999442
ketchikan,55.3422,-131.6461,6.26,100,75,3.09,US,1700999443
tazovsky,67.4667,78.7,-19.78,90,63,5.47,RU,1700999445
hastings,50.8552,0.5729,7.51,36,100,3.21,GB,1700999447
andi,42.7836,46.2617,9.36,57,4,2.79,RU,1700999449
deschutes river woods,43.9915,-121.3584,0.38,78,0,2.06,US,1700999450
bredasdorp,-34.5322,20.0403,27.73,40,37,6.25,ZA,1700999452
hammerfest,70.6634,23.6821,-1.75,86,40,2.06,NO,1700999454
atafu village,-8.5421,-172.5159,29.25,73,49,4.89,TK,1700999455
myitkyina,25.3833,97.4,18.75,72,0,0.45,MM,1700999459
port-saint-louis-du-rhone,43.3833,4.8,10.13,46,0,11.32,FR,1700999460
saint-pierre,-21.3393,55.4781,28.82,61,75,4.12,RE,1700999462
alaghsas,17.0187,8.0168,31.94,11,65,6.17,NE,1700999464
island harbour,50.724,-1.2758,8.85,94,100,2.24,GB,1700999466
flying fish cove,-10.4217,105.6791,24.82,83,40,4.12,CX,1700999468
port lincoln,-34.7333,135.8667,15.09,78,26,9.87,AU,1700999469
chonchi,-42.6128,-73.8092,12.84,93,100,0.76,CL,1700999471
saldanha,-33.0117,17.9442,26.03,70,17,7.29,ZA,1700999473
ribeira brava,32.65,-17.0667,21.35,71,99,1.52,PT,1700999475
es castell,39.8795,4.2854,15.38,58,20,2.57,ES,1700999476
vanino,49.0869,140.2543,-13.37,62,1,5.86,RU,1700999479
margaret river,-33.95,115.0667,20.29,71,100,1.91,AU,1700999480
bubaque,11.2833,-15.8333,26.44,64,0,2.07,GW,1700999482
fort bragg,35.139,-79.006,5.91,77,100,2.06,US,1700999484
inhambane,-23.865,35.3833,30.44,57,5,6.73,MZ,1700999367
sinabang,2.4803,96.3801,26.95,79,99,1.76,ID,1700999487
moussoro,13.6408,16.4901,37.58,11,45,6.19,TD,1700999489
paulden,34.8856,-112.4682,1.33,45,0,1.64,US,1700999493
kerikeri,-35.2268,173.9474,9.75,92,1,2.48,NZ,1700999496
belmonte,-15.8631,-38.8828,24.89,79,100,6.55,BR,1700999498
karoi,-16.8099,29.6925,28.02,38,47,3.22,ZW,1700999500
beau vallon,-20.4189,57.6953,29.13,61,75,6.69,MU,1700999502
al kharijah,25.4514,30.5464,28.18,12,90,5.15,EG,1700999503
tralee,52.2704,-9.7026,11.14,93,75,2.57,IE,1700999505
betio village,1.358,172.9211,27.02,78,81,3.72,KI,1700999507
tura,25.5198,90.2201,18.95,76,0,1.36,IN,1700999509
canico,32.6333,-16.85,21.35,56,20,4.12,PT,1700999510
trairi,-3.2778,-39.2689,30.63,54,95,5.2,BR,1700999319
kendari,-3.945,122.4989,25.82,87,100,0.62,ID,1700999515
new plymouth,-39.0667,174.0833,10.45,73,1,2.92,NZ,1700999517
vilyuchinsk,52.9306,158.4028,-6.85,74,77,8.41,RU,1700999519
arvayheer,46.2639,102.775,-7.92,54,2,9.04,MN,1700999520
el fasher,13.6279,25.3494,36.08,10,3,5.78,SD,1700999522
meizhou,24.2977,116.1072,18.92,65,16,0.92,CN,1700999524
tateyama,34.9833,139.8667,9.5,82,24,2.51,JP,1700999526
kas,36.2018,29.6377,14.22,76,74,10.54,TR,1700999527
kingston,17.997,-76.7936,26.53,83,20,2.57,JM,1700999255
tafresh,34.692,50.013,13.09,27,51,8.42,IR,1700999531
georgetown,5.4112,100.3354,28.96,76,20,2.57,MY,1700999284
arkhangel'sk,64.5401,40.5433,-15.49,99,98,1.76,RU,1700999382
weihai,37.5017,122.1136,7.22,92,100,2.27,CN,1700999536
mount washington,38.0501,-85.5458,5.14,91,53,3.26,US,1700999277
assare,-6.8744,-39.875,30.41,30,0,2.92,BR,1700999539
isafjordur,66.0755,-23.124,1.02,93,0,1.03,IS,1700999541
cold lake,54.4502,-110.2017,-9.03,86,100,0.0,CA,1700999545
benguela,-12.5763,13.4055,28.86,72,87,5.35,AO,1700999547
alice springs,-23.7,133.8833,19.75,77,100,3.09,AU,1700999549
luganville,-15.5333,167.1667,25.06,76,87,3.42,VU,1700999551
cabo san lucas,22.8909,-109.9124,23.06,75,96,2.18,MX,1700999234
ostersund,63.1792,14.6357,-6.75,86,100,2.06,SE,1700999554
diego de almagro,-26.3667,-70.05,19.15,35,0,1.51,CL,1700999556
kajaani,64.2273,27.7285,-20.97,84,0,0.0,FI,1700999558
puerto santa,-8.9906,-78.6456,18.47,90,99,2.49,PE,1700999559
talnakh,69.4865,88.3972,-23.05,98,93,2.66,RU,1700999561
klyuchi,52.2667,79.1667,0.82,54,64,3.68,RU,1700999564
bardai,11.65,7.2333,31.87,25,94,3.31,NG,1700999566
mount isa,-20.7333,139.5,25.87,69,100,0.0,AU,1700999567
bodo,67.28,14.405,-3.98,82,0,5.14,NO,1700999569
puerto deseado,-47.7503,-65.8938,12.33,33,84,9.86,AR,1700999570
bellevue,47.6104,-122.2007,4.83,93,75,2.06,US,1700999454
jamestown,42.097,-79.2353,0.4,75,0,2.06,US,1700999405
zhalantun,48.0,122.7167,-18.34,91,33,0.83,CN,1700999575
newman,37.3138,-121.0208,3.13,61,40,1.62,US,1700999496
tabou,4.423,-7.3528,29.21,70,53,3.21,CI,1700999578
verkhnevilyuysk,63.4453,120.3167,-17.15,95,100,3.39,RU,1700999580
guerrero negro,27.9769,-114.0611,15.72,75,19,1.69,MX,1700999447
mazagao,-0.115,-51.2894,29.03,67,77,2.3,BR,1700999583
mokhotlong,-29.2894,29.0675,26.23,28,83,5.6,LS,1700999585
zarnesti,45.3,26.8667,1.49,66,100,6.49,RO,1700999586
alofi,-19.0595,-169.9187,24.94,100,40,2.06,NU,1700999588
qarazhal,48.0078,70.7903,2.34,41,100,4.89,KZ,1700999591
labrador city,52.9463,-66.9114,-7.05,79,75,5.14,CA,1700999592
haiku-pauwela,20.9219,-156.3051,23.91,79,40,4.63,US,1700999594
hovd,48.0056,91.6419,-6.33,72,18,1.47,MN,1700999596
vila velha,-20.3297,-40.2925,23.97,75,0,3.58,BR,1700999598
kabinda,-6.1333,24.4833,23.29,88,93,1.71,CD,1700999600
vrede,-27.4257,29.1659,32.09,18,35,2.64,ZA,1700999601
brisas de zicatela,15.8369,-97.0419,25.69,74,54,1.32,MX,1700999603
pampa,35.5362,-100.9599,-5.24,73,4,6.83,US,1700999605
puerto ayora,-0.7393,-90.3518,23.08,97,42,4.02,EC,1700999607
east london,-33.0153,27.9116,25.52,78,75,7.2,ZA,1700999609
togur,58.3631,82.8265,-7.7,94,100,3.13,RU,1700999611
selfoss,63.9331,-20.9971,4.67,84,100,2.29,IS,1700999612
goz beida,13.95,20.55,39.46,13,95,4.78,TD,1700999614
khor,47.8861,134.9464,-18.41,89,8,4.7,RU,1700999616
eureka,40.8021,-124.1637,3.12,99,55,2.84,US,1700999618
codrington,-38.2667,141.9667,12.44,84,100,5.93,AU,1700999619
poshekhon'ye,58.4993,39.1353,-7.66,88,89,2.44,RU,1700999621
san antonio de pale,-1.4014,5.6325,26.64,82,92,4.27,GQ,1700999625
shahrak,34.1074,64.3052,8.13,49,5,3.3,AF,1700999626
antalaha,-14.9003,50.2788,28.58,67,70,7.01,MG,1700999628
choibalsan,48.0667,114.5,-20.84,99,77,2.23,MN,1700999630
puerto madero,14.7208,-92.4215,25.3,81,29,2.29,MX,1700999631
laguna,38.421,-121.4238,8.38,83,0,0.0,US,1700999633
crane,31.3974,-102.3501,5.2,78,88,8.27,US,1700999634
hadibu,12.65,54.0333,27.69,67,9,5.99,YE,1700999636
abu zabad,12.35,29.25,37.17,11,50,5.13,SD,1700999638
ghadamis,30.1337,9.5007,19.79,29,100,3.05,LY,1700999639
vadso,70.0744,29.7487,-3.91,80,100,2.06,NO,1700999641
tanjung pinang,0.9167,104.45,25.02,78,100,1.02,ID,1700999643
sena madureira,-9.0656,-68.6569,22.35,100,100,0.91,BR,1700999645
kalengwa,-13.4659,25.0027,30.31,40,82,0.72,ZM,1700999646
kuta,-8.7233,115.1723,27.97,83,20,2.24,ID,1700999648
ammon,43.4696,-111.9666,-5.97,86,100,2.57,US,1700999576
la passe,45.5549,-0.8967,7.21,60,68,2.88,FR,1700999651
okoneshnikovo,54.8377,75.0834,0.62,98,100,2.61,RU,1700999653
chinchilla,-26.75,150.6333,20.23,86,65,3.94,AU,1700999655
muynoq,43.7683,59.0214,11.64,45,100,5.27,UZ,1700999656
tinghir,31.5157,-5.5343,15.95,14,21,0.67,MA,1700999658
coquimbo,-29.9533,-71.3436,13.85,94,100,2.57,CL,1700999472
toliara,-23.35,43.6667,30.16,59,0,7.62,MG,1700999662
krasnomayskiy,57.6194,34.4099,-5.55,95,91,1.95,RU,1700999663
pokhara,28.2333,83.9833,17.72,69,24,2.05,NP,1700999665
eyl,7.9803,49.8164,29.0,64,25,10.24,SO,1700999667
mar del plata,-38.0023,-57.5575,22.19,71,0,8.23,AR,1700999669
malinyi,-8.9333,36.1333,36.18,29,92,2.7,TZ,1700999670
college,64.8569,-147.8028,-6.97,82,75,0.0,US,1700999672
mirny,62.5353,113.9611,-18.36,96,100,3.71,RU,1700999674
nar'yan-mar,67.6713,53.087,-17.16,96,100,1.34,RU,1700999675
ust'-ilimsk,58.0006,102.6619,-22.52,99,55,0.86,RU,1700999677
boise,43.6135,-116.2035,-2.7,83,0,2.57,US,1700999554
nola,40.922,14.5329,13.83,45,0,1.75,IT,1700999680
mantua,45.1667,10.7833,12.34,50,0,2.24,IT,1700999682
senador jose porfirio,-2.5908,-51.9542,28.3,70,89,2.03,BR,1700999686
constitucion,-35.3333,-72.4167,16.64,73,3,1.69,CL,1700999687
ancud,-41.8697,-73.8203,11.72,80,100,1.14,CL,1700999689
broken hill,-31.95,141.4333,22.11,41,0,7.78,AU,1700999690
murashi,59.3999,48.9615,-8.44,99,100,1.46,RU,1700999692
sevsk,52.1491,34.4926,-0.15,91,100,7.16,RU,1700999694
kotovo,50.3211,44.8012,8.22,96,100,5.16,RU,1700999695
minas de marcona,-15.2119,-75.1103,15.19,77,91,3.85,PE,1700999697
alesund,62.4723,6.1549,5.42,91,20,7.72,NO,1700999700
uzgen,40.7699,73.3007,11.16,36,99,1.33,KG,1700999702
dudinka,69.4058,86.1778,-25.85,100,95,2.55,RU,1700999704
nemuro,43.3236,145.575,0.64,65,9,8.58,JP,1700999706
lorengau,-2.0226,147.2712,27.51,79,42,2.77,PG,1700999707
princeville,45.7668,-61.2985,-0.88,81,20,3.6,CA,1700999709
palmer,42.1584,-72.3287,-0.77,86,20,0.0,US,1700999711
kaitong,44.8135,123.15,-11.22,91,99,1.73,CN,1700999713
aberdeen,57.1437,-2.0981,2.27,91,82,1.54,GB,1700999263
severnoye,56.3491,78.3619,-0.57,97,100,3.58,RU,1700999716
sao jose da coroa grande,-8.8978,-35.1478,27.19,55,100,4.41,BR,1700999718
yinchuan,38.4681,106.2731,5.82,31,2,4.15,CN,1700999720
zaruma,-3.6833,-79.6167,18.11,87,82,0.44,EC,1700999721
patterson,37.4716,-121.1297,6.7,59,39,1.74,US,1700999723
magadan,59.5667,150.8,-16.93,73,100,3.35,RU,1700999725
nadi,-17.8,177.4167,26.0,78,40,1.54,FJ,1700999727
kotabumi,-4.8333,104.9,25.26,86,100,2.2,ID,1700999728
antsiranana,-12.2787,49.2917,32.42,43,75,4.12,MG,1700999730
barranca,-10.75,-77.7667,18.64,85,86,2.65,PE,1700999493
polovinnoye,54.7914,65.9864,0.8,97,100,2.84,RU,1700999734
acajutla,13.5928,-89.8275,25.48,79,14,2.26,SV,1700999634
ad douiem,14.0012,32.3116,38.72,11,86,4.42,SD,1700999739
surab,28.4914,66.2585,14.74,30,52,2.29,PK,1700999741
san luis,-33.295,-66.3356,26.12,30,36,4.71,AR,1700999742
hengyang,26.8881,112.615,15.57,64,24,1.87,CN,1700999744
chai nat,15.1167,100.1,25.02,77,76,2.81,TH,1700999746
yulinshi,38.2906,109.7494,2.79,47,1,5.69,CN,1700999747
afaahiti,-17.75,-149.2833,23.93,82,91,8.17,PF,1700999749
magaria,12.9983,8.9099,34.38,17,86,3.18,NE,1700999751
nogliki,51.8333,143.1667,-17.03,67,1,9.39,RU,1700999752
kamina,-8.7386,24.9906,26.49,62,88,0.68,CD,1700999754
joplin,37.0842,-94.5133,-0.54,89,100,6.69,US,1700999702
tucumcari,35.1717,-103.725,-6.7,93,0,3.09,US,1700999759
saipan,15.1355,145.701,27.39,94,40,4.63,MP,1700999760
constantia,44.1833,28.65,1.11,90,100,20.15,RO,1700999489
salalah,17.0151,54.0924,30.05,51,20,3.6,OM,1700999764
piti village,13.4626,144.6933,28.49,83,0,7.2,GU,1700999766
carolina beach,34.0352,-77.8936,7.24,89,41,3.26,US,1700999768
novodvinsk,64.4165,40.8122,-15.68,99,98,1.6,RU,1700999770
nakhon ratchasima,15.0,102.1667,26.36,83,40,1.54,TH,1700999772
muravlenko,63.7898,74.523,-11.82,97,95,3.5,RU,1700999774
gadzhiyevo,69.2551,33.3362,-7.36,86,94,0.66,RU,1700999776
as sulayyil,20.4607,45.5779,32.14,22,63,2.97,SA,1700999778
bethpage,40.7443,-73.4821,3.79,74,0,2.06,US,1700999530
ad dawadimi,24.5077,44.3924,29.64,22,34,5.6,SA,1700999782
tocopilla,-22.092,-70.1979,20.45,61,39,2.8,CL,1700999784
banda aceh,5.5577,95.3222,24.78,90,100,0.71,ID,1700999785
pandan,14.0453,124.1694,27.15,85,18,4.74,PH,1700999787
kilindoni,-7.9139,39.6668,27.36,76,55,5.14,TZ,1700999789
mahibadhoo,3.7833,72.9667,28.66,71,40,3.46,MV,1700999791
mata-utu,-13.2816,-176.1745,28.83,77,98,4.78,WF,1700999793
roma,43.2128,-75.4557,-0.15,78,40,3.09,US,1700999656
bor,56.3567,44.0669,-2.04,97,100,4.22,RU,1700999796
antonio enes,-16.2325,39.9086,30.99,59,88,5.96,MZ,1700999798
muisne,0.6,-80.0333,24.89,87,87,0.93,EC,1700999800
viedma,-40.8135,-62.9967,22.96,31,53,10.42,AR,1700999802
pekan,3.4836,103.3996,28.06,92,100,3.65,MY,1700999804
ocean shores,46.9737,-124.1563,4.45,94,0,6.71,US,1700999806
okhotsk,59.3833,143.3,-19.46,93,100,8.18,RU,1700999808
margate,51.3813,1.3862,5.39,76,100,2.24,GB,1700999809
harstad,68.799,16.5293,2.31,97,93,8.94,NO,1700999811
muscat,23.6139,58.5922,27.01,59,16,3.59,OM,1700999582
chimore,-16.9833,-65.1333,23.12,95,73,0.42,BO,1700999814
taltal,-25.4,-70.4833,17.34,74,31,1.85,CL,1700999816
guixi,28.2886,117.2133,13.59,74,24,0.73,CN,1700999817
serafimovskiy,54.4241,53.7964,0.64,88,100,5.03,RU,1700999819
petropavlovsk-kamchatsky,53.0452,158.6483,-7.67,74,100,4.47,RU,1700999692
stung treng,13.5259,105.9683,25.15,83,79,1.59,KH,1700999822
santa cruz,-17.8,-63.1667,24.03,83,75,3.6,BO,1700999824
parambu,-6.2111,-40.6944,28.78,48,4,4.17,BR,1700999827
kuanda,56.3161,116.0806,-25.96,96,87,0.13,RU,1700999829
lata,40.1629,-8.3327,13.78,63,91,1.06,PT,1700999831
axim,4.8699,-2.2405,27.4,79,100,4.69,GH,1700999834
concepcion,-36.827,-73.0498,10.89,100,75,2.06,CL,1700999836
warmbad,-28.45,18.7333,36.58,7,69,2.58,NA,1700999838
tuensang,26.2833,94.8333,14.92,88,0,1.32,IN,1700999841
qaqortoq,60.7167,-46.0333,-4.36,95,100,2.66,GL,1700999843
sechura,-5.5569,-80.8222,19.4,83,18,4.5,PE,1700999845
aoulef,26.9667,1.0833,21.86,26,46,1.81,DZ,1700999847
vernon,50.2581,-119.2691,1.74,81,100,0.51,CA,1700999848
hiawatha,42.0358,-91.6821,-1.38,95,100,1.54,US,1700999850
calvinia,-31.4707,19.776,32.74,12,2,5.89,ZA,1700999852
bonanza,14.0289,-84.591,21.01,100,94,1.03,NI,1700999853
bure,10.7,37.0667,23.64,38,93,1.52,ET,1700999855
zvishavane,-20.3267,30.0665,35.97,15,0,5.26,ZW,1700999857
arraial do cabo,-22.9661,-42.0278,22.92,73,75,2.06,BR,1700999858
belyy yar,53.6039,91.3903,-10.06,92,80,2.0,RU,1700999860
natal,-5.795,-35.2094,30.36,58,20,7.2,BR,1700999862
molina,-35.1167,-71.2833,20.76,93,100,1.03,CL,1700999864
yekaterinoslavka,50.3734,129.1139,-23.75,97,35,2.21,RU,1700999865
general conesa,-40.1,-64.4333,25.5,26,20,11.15,AR,1700999867
new norfolk,-42.7826,147.0587,10.72,96,100,1.46,AU,1700999869
smithers,54.7804,-127.1743,-0.82,100,100,2.06,CA,1700999871
ain leuh,33.2921,-5.3384,14.49,22,0,2.21,MA,1700999872
kristiansund,63.1115,7.732,1.36,64,0,5.14,NO,1700999874
al majaridah,19.1236,41.9111,32.14,43,20,2.32,SA,1700999876
oamaru,-45.0784,170.9801,7.99,83,73,0.85,NZ,1700999878
weno,7.4515,151.8468,28.97,79,75,3.6,FM,1700999880
tarancon,40.0085,-3.0073,13.08,38,57,1.84,ES,1700999882
turpan,42.9333,89.1667,5.16,34,5,0.49,CN,1700999883
macaiba,-5.8583,-35.3539,30.46,51,20,7.2,BR,1700999885
san angelo,31.4638,-100.437,4.74,83,100,6.69,US,1700999889
al jawf,29.5,38.75,27.69,21,42,7.76,SA,1700999890
zaragoza,41.6561,-0.8773,15.82,59,0,2.06,ES,1700999611
voss,60.623,6.4229,0.85,89,100,1.45,NO,1700999894
inirida,3.8653,-67.9239,23.65,96,78,0.29,CO,1700999896
thompson,55.7435,-97.8558,-14.91,78,75,5.14,CA,1700999898
alo,7.4178,6.7371,27.38,67,100,1.98,NG,1700999899
quatre cocos,-20.2078,57.7625,29.06,65,27,5.14,MU,1700999901
el alto,-4.2714,-81.2147,20.28,73,17,4.16,PE,1700999903
kapa'a,22.0752,-159.319,24.18,83,40,5.66,US,1700999904
al jahra',29.3375,47.6581,24.75,42,100,5.44,KW,1700999906
mineiros,-17.5694,-52.5511,28.03,55,1,2.85,BR,1700999908
lethem,3.3803,-59.7968,27.05,73,94,3.66,GY,1700999910
boguchany,58.3814,97.4531,-21.65,98,7,0.48,RU,1700999911
ngorongoro,-3.2397,35.4875,17.73,70,94,1.73,TZ,1700999913
auxerre,47.8,3.5667,5.91,68,83,2.54,FR,1700999915
ulety,51.3572,112.4849,-15.41,97,94,1.44,RU,1700999917
chancay,-11.5714,-77.2672,18.62,86,93,1.44,PE,1700999919
metlili chaamba,32.2667,3.6333,17.52,27,0,1.14,DZ,1700999922
nchelenge,-9.3451,28.734,20.89,93,100,1.36,ZM,1700999924
ciudad lazaro cardenas,17.9583,-102.2,23.91,71,36,2.4,MX,1700999926
mount pleasant,32.7941,-79.8626,6.67,83,100,2.57,US,1700999927
saint-felicien,48.6501,-72.4491,-1.62,80,75,2.57,CA,1700999929
port saint john's,-31.6229,29.5448,23.34,91,100,4.54,ZA,1700999931
birao,10.2849,22.7882,37.9,16,53,3.26,CF,1700999932
asaita,11.5636,41.4394,35.01,22,66,1.49,ET,1700999934
myeik,12.4333,98.6,27.54,73,92,3.06,MM,1700999863
mbanza kongo,-6.267,14.2401,30.57,52,89,1.13,AO,1700999937
pushchino,54.8339,37.6264,-4.63,93,100,4.17,RU,1700999939
hit,33.6416,42.8251,23.05,44,0,6.25,IQ,1700999941
kulhudhuffushi,6.6221,73.07,28.81,75,62,7.44,MV,1700999942
farafangana,-22.8167,47.8333,27.88,71,58,6.58,MG,1700999944
antibes,43.5624,7.1278,13.8,39,0,3.09,FR,1700999946
baikunthpur,23.25,82.55,20.56,43,83,0.76,IN,1700999948
leava,-14.3,-178.1667,28.66,81,87,6.61,WF,1700999950
sandakan,5.8402,118.1179,27.82,89,40,1.03,MY,1700999951
san elizario,31.5851,-106.2728,9.13,48,14,3.71,US,1700999953
takikawa,43.5528,141.9064,-0.88,95,99,2.74,JP,1700999955
iida,35.5197,137.8207,7.24,75,1,0.86,JP,1700999957
sao cristovao,-11.0147,-37.2064,27.95,61,75,3.09,BR,1700999959
kourou,5.1552,-52.6478,25.03,83,72,2.92,GF,1700999961
howrah,22.5892,88.3103,27.0,54,3,2.06,IN,1700999962
kill devil hills,36.0307,-75.676,14.43,94,100,5.14,US,1700999964
acarau,-2.8856,-40.12,28.95,63,99,7.06,BR,1700999966
liman,48.9884,37.8023,12.64,76,100,6.61,UA,1700999968
quibdo,5.6947,-76.6611,23.91,94,83,0.13,CO,1700999969
karditsa,39.3656,21.9217,10.65,34,21,3.35,GR,1700999971
nuku'alofa,-21.1333,-175.2,25.19,100,40,1.54,TO,1700999974
novobod,39.0108,70.1508,12.38,48,96,1.53,TJ,1700999976
camara de lobos,32.6333,-16.9667,21.35,56,20,4.12,PT,1700999978
kosh-agach,50.0,88.6667,-14.81,91,14,1.92,RU,1700999983
dinard,48.6314,-2.0614,8.49,77,100,6.17,FR,1700999985
dunedin,-45.8742,170.5036,10.45,88,96,1.12,NZ,1700999987
langenselbold,50.1766,9.04,6.24,88,94,3.71,DE,1700999989
nurota,40.5614,65.6886,17.89,26,58,2.92,UZ,1700999990
murghob,38.1702,73.9667,-3.99,44,100,0.35,TJ,1700999992
benghazi,32.1167,20.0667,18.42,51,98,10.07,LY,1700999993
quellon,-43.1167,-73.6167,10.22,94,100,2.66,CL,1700999995
ciudad bolivar,8.1222,-63.5497,26.08,78,100,4.99,VE,1700999997
fauske,67.2588,15.3918,-3.98,87,78,2.4,NO,1700999998
ankpa,7.3706,7.6253,22.88,87,100,2.02,NG,1701000000
remire-montjoly,4.9167,-52.2667,25.02,100,75,1.03,GF,1701000003
sisimiut,66.9395,-53.6735,-2.47,95,100,5.18,GL,1701000008
brookings,44.3114,-96.7984,-2.17,85,100,6.17,US,1701000012
beloyarskiy,63.7119,66.6722,-19.33,100,93,1.38,RU,1701000015
vavoua,7.3819,-6.4778,32.42,47,96,1.24,CI,1701000020
lubao,14.9167,120.55,28.84,79,74,0.51,PH,1701000023
arkalyk,50.2486,66.9114,1.97,44,100,5.7,KZ,1701000025
upington,-28.4478,21.2561,37.21,6,0,1.54,ZA,1701000027
basco,20.4487,121.9702,25.78,80,99,11.84,PH,1701000029
tual,-5.6667,132.75,28.6,75,98,3.6,ID,1701000031
fort mcmurray,56.7268,-111.381,-13.23,85,40,3.09,CA,1701000009
mao,39.8885,4.2658,15.31,58,20,2.57,ES,1701000036
bechar,31.6167,-2.2167,18.18,14,0,1.03,DZ,1701000038
ascension,30.2169,-90.9001,18.36,98,100,2.06,US,1701000039
forster,-32.1667,152.5167,18.49,91,66,1.96,AU,1701000041
misratah,32.3754,15.0925,18.83,59,100,7.58,LY,1701000043
conde,-7.2597,-34.9075,28.7,54,20,5.14,BR,1701000045
bonthe,7.5264,-12.505,29.31,67,19,1.79,SL,1701000048
yilan,24.757,121.753,22.79,89,100,1.77,TW,1701000024
salta,-24.7859,-65.4117,21.43,66,20,1.54,AR,1701000052
qui nhon,13.7667,109.2333,23.6,92,96,3.47,VN,1701000054
katabu,-4.9333,122.5167,26.12,83,99,1.81,ID,1701000056
lompoc,34.6391,-120.4579,14.96,80,0,3.09,US,1700999948
sharkan,57.2989,53.8712,0.15,98,100,3.95,RU,1701000060
kroya,-7.6331,109.2461,25.08,89,90,1.51,ID,1701000062
itaituba,-4.2761,-55.9836,23.09,94,75,1.54,BR,1701000065
baiti,13.745,-14.7482,32.27,14,0,0.36,SN,1701000067
tindouf,27.6711,-8.1474,18.25,20,0,2.06,DZ,1701000069
uttarkashi,30.7333,78.45,16.01,55,100,0.71,IN,1701000071
luchegorsk,46.4764,134.2569,-25.26,99,12,1.04,RU,1701000073
mandal,25.45,74.5667,21.41,36,100,3.53,IN,1701000075
edson,53.5835,-116.4356,-1.92,80,0,2.06,CA,1701000077
porto novo,6.4965,2.6036,26.9,91,100,0.35,BJ,1700999970
kudahuvadhoo,2.6708,72.8944,28.3,69,58,1.84,MV,1701000080
cascais,38.6979,-9.4215,16.95,88,75,6.26,PT,1700999936
opuwo,-18.0607,13.84,31.44,34,90,4.78,NA,1701000087
wahpeton,46.2652,-96.6059,0.01,86,100,7.2,US,1701000090
levis,46.8033,-71.1779,-0.6,87,100,2.57,CA,1701000012
bloemfontein,-29.1211,26.214,33.71,24,20,4.63,ZA,1701000093
vanimo,-2.6741,141.3028,26.17,86,93,0.99,PG,1701000096
nema,57.5067,50.5011,-0.94,98,100,2.69,RU,1701000099
kasongo-lunda,-6.4667,16.8167,28.39,62,98,0.51,CD,1701000101
smara,26.7384,-11.6719,18.94,50,100,1.92,EH,1701000104
khovd,48.0056,91.6419,-6.33,72,18,1.47,MN,1701000110
xinpu,34.5997,119.1594,6.92,78,73,2.72,CN,1701000111
pestovo,58.5938,35.8024,-6.4,92,97,1.78,RU,1701000113
estancia,-11.2683,-37.4383,30.1,42,46,3.87,BR,1701000115
sheregesh,52.9209,87.9869,-1.14,98,100,1.69,RU,1701000116
paka,4.6374,103.4368,27.96,83,40,1.54,MY,1701000118
vuktyl,63.8567,57.3094,-16.61,98,79,1.34,RU,1701000120
zhangjiakou,40.81,114.8794,-1.41,49,67,2.17,CN,1701000122
mangrol,21.1167,70.1167,26.99,71,7,4.23,IN,1701000124
buritis,-15.6178,-46.4233,26.57,69,71,3.58,BR,1701000126
longmen,24.9597,118.0889,20.34,77,3,0.1,CN,1701000128
palu,-0.8917,119.8707,24.97,95,100,0.51,ID,1701000130
malazgirt,39.1427,42.5401,8.16,73,78,5.08,TR,1701000132
la tuque,47.4334,-72.7824,-2.86,86,100,2.06,CA,1701000134
vila franca do campo,37.7167,-25.4333,20.23,99,100,11.5,PT,1701000136
nago,26.5881,127.9761,20.81,73,57,3.29,JP,1701000138
reggane,26.7158,0.1714,21.93,19,11,1.22,DZ,1700999958
mhamid,29.82,-5.72,19.81,17,6,1.59,MA,1701000142
drebkau,51.65,14.2167,4.06,77,37,2.68,DE,1700999958
noumea,-22.2763,166.4572,21.99,76,42,3.71,NC,1700999706
iskateley,67.6803,53.1512,-17.21,96,100,1.34,RU,1701000147
negara,-8.3151,114.6025,25.46,87,75,2.47,ID,1701000149
manistee,44.2445,-86.3242,-0.97,83,100,1.54,US,1701000026
mariental,-24.6333,17.9667,37.96,16,30,6.77,NA,1701000153
halifax,44.6453,-63.5724,-1.0,87,100,4.63,CA,1700999996
isangel,-19.55,169.2667,22.76,78,41,3.86,VU,1701000158
duba,27.3513,35.6901,27.38,71,98,4.22,SA,1701000160
akrehamn,59.2667,5.1833,4.12,93,75,5.14,NO,1701000162
watford city,47.8022,-103.2832,-6.42,73,100,5.14,US,1701000123
coahuayana de hidalgo,18.7,-103.6583,22.16,70,2,2.07,MX,1701000166
manavalakurichi,8.1333,77.3,28.99,73,83,4.94,IN,1701000167
ebeltoft,56.1944,10.6821,1.01,80,100,2.06,DK,1701000169
arambagh,22.8833,87.7833,24.05,46,6,2.04,IN,1701000171
pula,44.8683,13.8481,12.31,40,0,2.06,HR,1701000173
karlskrona,56.1616,15.5866,-1.75,62,10,3.96,SE,1701000151
posse,-14.0931,-46.3694,28.42,47,30,4.52,BR,1701000176
beledweyne,4.7358,45.2036,33.6,32,47,5.55,SO,1701000178
kruisfontein,-34.0033,24.7314,27.29,49,26,5.44,ZA,1701000179
tadmur,34.5608,38.2805,20.68,43,0,10.47,SY,1701000181
utrik,11.2278,169.8474,27.86,77,74,9.44,MH,1701000183
piensk,51.249,15.0469,0.71,95,87,4.19,PL,1701000185
hirara,24.8,125.2833,22.92,83,75,6.69,JP,1701000187
lubumbashi,-11.6609,27.4794,25.19,61,87,3.23,CD,1701000189
egilsstadir,65.2653,-14.3948,-3.05,93,100,1.54,IS,1701000191
sri dungargarh,28.0833,74.0167,24.76,26,99,2.43,IN,1701000193
tuyen quang,21.8233,105.2181,23.57,66,72,0.42,VN,1701000194
sinop,41.7711,34.8709,9.94,91,65,1.4,TR,1701000196
fortuna,40.5982,-124.1573,3.19,100,0,4.63,US,1701000198
sirjan,29.452,55.6814,17.21,23,96,3.9,IR,1701000200
namibe,-15.1961,12.1522,26.8,70,88,7.35,AO,1701000202
cocoa beach,28.32,-80.6076,22.01,92,100,1.54,US,1701000204
hauterive,46.0901,3.4459,6.11,60,43,0.95,FR,1701000206
kamuthi,9.4073,78.3734,27.52,75,90,5.44,IN,1701000208
mount pearl,47.5166,-52.7813,-1.82,80,20,4.12,CA,1701000209
portoferraio,42.8115,10.3146,15.55,47,9,4.18,IT,1701000211
beidaihehaibin,39.8222,119.5181,3.13,63,100,1.24,CN,1701000090
cheremshan,54.6667,51.5,1.4,100,100,5.23,RU,1701000217
mili,6.0815,171.735,28.34,81,85,7.95,MH,1701000218
shimanovsk,52.0,127.7,-16.49,77,2,2.67,RU,1701000220
thunder bay,48.4001,-89.3168,-3.01,68,100,3.09,CA,1701000222
villa rica,33.7321,-84.9191,8.78,78,5,0.89,US,1701000224
mossel bay,-34.1831,22.146,26.96,68,9,5.03,ZA,1701000225
nadym,65.5333,72.5167,-13.48,96,100,3.76,RU,1701000037
aykhal,66.0,111.5,-18.16,98,100,4.26,RU,1701000228
atyrau,47.1167,51.8833,11.01,66,40,8.0,KZ,1701000230
colares,38.7992,-9.4469,16.85,87,75,6.26,PT,1701000232
ceres,37.5949,-120.9577,6.14,87,0,0.0,US,1701000233
lagos,6.5833,3.75,25.18,85,100,1.61,NG,1700999802
novyy urgal,51.0736,132.5642,-21.17,92,4,1.58,RU,1701000237
alta,69.9689,23.2717,-1.56,84,75,24.14,NO,1701000238
wanning,18.8003,110.3967,22.14,78,19,4.8,CN,1701000242
reynosa,26.0833,-98.2833,20.5,93,100,2.84,MX,1701000026
queenstown,-31.8976,26.8753,35.23,19,21,7.96,ZA,1701000246
tabas,33.5959,56.9244,20.89,23,100,4.16,IR,1701000248
rongelap,11.1635,166.8941,28.28,70,53,8.49,MH,1701000249
nikolayevsk-on-amure,53.1406,140.73,-15.79,68,77,5.61,RU,1701000252
carbonear,47.7332,-53.2148,-1.05,86,1,3.38,CA,1701000253
luderitz,-26.6481,15.1594,25.17,51,1,8.76,NA,1701000255
taybad,34.74,60.7756,18.0,40,70,10.38,IR,1701000257
iquique,-20.2208,-70.1431,18.02,70,33,2.07,CL,1701000159
dryden,49.7833,-92.7503,-4.84,86,75,5.14,CA,1701000261
dakhla,23.6848,-15.958,20.01,60,0,5.66,EH,1701000263
beyneu,45.3167,55.2,10.81,53,100,10.69,KZ,1701000265
veinticinco de mayo,-35.4323,-60.1727,25.55,60,0,3.58,AR,1701000266
rio grande,-32.035,-52.0986,24.06,69,9,6.12,BR,1701000187
ta`u,-14.2336,-169.5144,27.53,82,52,6.72,AS,1701000270
ambodifotatra,-16.9833,49.85,25.83,81,98,5.29,MG,1701000272
dibba al-hisn,25.6196,56.2729,28.1,51,72,1.87,AE,1701000274
yokadouma,3.5167,15.05,32.18,48,96,0.97,CM,1701000276
doka,13.5167,35.7667,37.42,13,17,2.65,SD,1701000278
barentu,15.1139,37.5928,34.07,13,6,3.64,ER,1701000280
fairfield,41.2668,-73.3162,0.43,85,0,2.06,US,1701000281
san luis de la loma,17.2706,-100.8939,24.81,70,3,1.76,MX,1701000283
shanwei,22.782,115.3475,21.8,67,22,2.15,CN,1701000101
yangjiang,21.85,111.9667,21.1,75,76,1.7,CN,1701000115
limbang,4.75,115.0,25.06,95,100,1.28,MY,1701000288
cuellar,41.3679,-4.3084,12.49,45,59,0.61,ES,1701000290
makassar,-5.14,119.4221,25.03,100,20,2.06,ID,1701000292
paradip garh,20.3167,86.6167,23.77,66,12,4.3,IN,1701000294
pecos,31.4229,-103.4932,9.02,80,84,7.24,US,1701000177
tikrit,34.6071,43.6782,22.76,34,1,7.86,IQ,1701000285
huarmey,-10.0681,-78.1522,19.43,86,61,3.21,PE,1701000298
crucecita,-28.95,-58.9833,22.8,72,68,2.13,AR,1701000300
tangalle,6.024,80.7911,28.09,83,25,5.38,LK,1701000302
swakopmund,-22.6833,14.5333,22.47,79,25,4.02,NA,1701000304
susuman,62.7833,148.1667,-23.82,98,100,2.46,RU,1701000306
tokar,18.4254,37.729,32.8,45,48,7.46,SD,1701000017
morehead city,34.7229,-76.726,9.0,91,100,6.17,US,1701000260
bitkine,11.9801,18.2138,37.21,13,87,5.91,TD,1701000312
san rafael del sur,11.8485,-86.4384,24.54,82,47,4.57,NI,1701000314
hjo,58.3013,14.2878,-3.01,80,20,3.67,SE,1701000316
cooma,-36.2333,149.1333,11.26,94,68,0.77,AU,1701000317
enriquillo,17.9,-71.2333,22.82,82,22,3.52,DO,1701000319
tinajo,29.0788,-13.7081,20.49,68,40,5.66,ES,1701000321
scarborough,54.2797,-0.4044,4.81,86,100,0.89,GB,1701000037
lerwick,60.1545,-1.1494,8.0,86,100,7.72,GB,1701000325
tavira,37.1273,-7.6486,16.93,75,66,1.34,PT,1701000327
renukut,24.2,83.0333,20.84,48,84,2.12,IN,1701000329
baie-comeau,49.2168,-68.1489,-3.18,86,0,4.12,CA,1701000137
nuestra senora del rosario de caa cati,-27.7507,-57.6207,24.6,78,76,2.89,AR,1701000334
gadwal,16.2333,77.8,27.62,59,74,5.51,IN,1701000336
muswellbrook,-32.2667,150.9,20.18,74,36,1.84,AU,1701000338
waingapu,-9.6567,120.2641,28.08,77,59,1.43,ID,1701000340
kingsbridge,50.2845,-3.7764,12.2,91,100,6.6,GB,1701000341
ndjole,-0.1783,10.7649,32.25,60,89,0.8,GA,1701000343
